sl_no,district,tfc_number,centre_name,address,full_address,search_query,google_maps_url,latitude,longitude,geocode_provider,geocode_address,geocode_status
1,Ariyalur,39,Government Polytechnic College Keelapalur,Ariyalur- 621707,"Government Polytechnic College Keelapalur, Ariyalur- 621707","Government Polytechnic College Keelapalur, Ariyalur- 621707, Tamil Nadu, India",https://www.google.com/maps/search/?api=1&query=Government+Polytechnic+College+Keelapalur%2C+Ariyalur-+621707%2C+Tamil+Nadu%2C+India,11.005178,79.070696,arcgis,"621707, Ariyalur, Tamil Nadu",resolved
2,Ariyalur,53,University College of Engineering Ariyalur,"Kathankudikadu Village, Thelur Post, Ariyalur, - 621731","University College of Engineering Ariyalur, Kathankudikadu Village, Thelur Post, Ariyalur - 621731","University College of Engineering Ariyalur, Kathankudikadu Village, Thelur Post, Ariyalur - 621731, Tamil Nadu, India",https://www.google.com/maps/search/?api=1&query=University+College+of+Engineering+Ariyalur%2C+Kathankudikadu+Village%2C+Thelur+Post%2C+Ariyalur+-+621731%2C+Tamil+Nadu%2C+India,11.091133,79.159617,arcgis,"621731, Ariyalur, Tamil Nadu",resolved
3,Chengalpattu,7,Government Polytechnic College,"Bharathamadha Street Bharathipuram, Chromepet Chennai 600044",Government Polytechnic College Bharathamadha Street Bharathipuram Chromepet Chennai 600044,"Government Polytechnic College Bharathamadha Street Bharathipuram Chromepet Chennai 600044, Chengalpattu, Tamil Nadu, India",https://www.google.com/maps/search/?api=1&query=Government+Polytechnic+College+Bharathamadha+Street+Bharathipuram+Chromepet+Chennai+600044%2C+Chengalpattu%2C+Tamil+Nadu%2C+India,12.9560091,80.1435322,arcgis,"600044, Chromepet, Tamil Nadu",resolved
4,Chengalpattu,54,University Departments of Anna University,"Chennai - MIT Campus, Chrompet, Tambaram Taluk, Chengalpattu District - 600, 044","University Departments of Anna University, Chennai - MIT Campus, Chrompet, Tambaram Taluk, Chengalpattu District - 600044","University Departments of Anna University, Chennai - MIT Campus, Chrompet, Tambaram Taluk, Chengalpattu District - 600044, Tamil Nadu, India",https://www.google.com/maps/search/?api=1&query=University+Departments+of+Anna+University%2C+Chennai+-+MIT+Campus%2C+Chrompet%2C+Tambaram+Taluk%2C+Chengalpattu+District+-+600044%2C+Tamil+Nadu%2C+India,12.9560091,80.1435322,arcgis,"600044, Chromepet, Tamil Nadu",resolved
5,Chennai,1,"Central Polytechnic College, CIT Campus","Tharamani, Chennai - 600113. (Integerated, Workshop)","Central Polytechnic College, CIT Campus Tharamani, Chennai - 600113. (Integerated Workshop)","Central Polytechnic College, CIT Campus Tharamani, Chennai - 600113. (Integerated Workshop), Tamil Nadu, India",https://www.google.com/maps/search/?api=1&query=Central+Polytechnic+College%2C+CIT+Campus+Tharamani%2C+Chennai+-+600113.+%28Integerated+Workshop%29%2C+Tamil+Nadu%2C+India,12.9952,80.244,arcgis,"600113, CIT Campus, Indian Institute Of Technology, Tharamani, Chennai, Tamil Nadu",resolved
6,Chennai,2,"Central Polytechnic College, CIT Campus","Tharamani, Chennai - 600113. (Integerated, Workshop)","Central Polytechnic College, CIT Campus Tharamani, Chennai - 600113. (Integerated Workshop)","Central Polytechnic College, CIT Campus Tharamani, Chennai - 600113. (Integerated Workshop), Tamil Nadu, India",https://www.google.com/maps/search/?api=1&query=Central+Polytechnic+College%2C+CIT+Campus+Tharamani%2C+Chennai+-+600113.+%28Integerated+Workshop%29%2C+Tamil+Nadu%2C+India,12.9952,80.244,arcgis,"600113, CIT Campus, Indian Institute Of Technology, Tharamani, Chennai, Tamil Nadu",resolved
7,Chennai,3,"Institute of Chemical Technology, CIT","Campus, Tharamani Chennai-600113","Institute of Chemical Technology, CIT Campus, Tharamani Chennai-600113","Institute of Chemical Technology, CIT Campus, Tharamani Chennai-600113, Tamil Nadu, India",https://www.google.com/maps/search/?api=1&query=Institute+of+Chemical+Technology%2C+CIT+Campus%2C+Tharamani+Chennai-600113%2C+Tamil+Nadu%2C+India,13.0048983,80.244919,arcgis,"600113, Tharamani, Tamil Nadu",resolved
8,Chennai,4,"Central Polytechnic College, CIT Campus","Tharamani, Chennai - 600113. (Auditorium)","Central Polytechnic College, CIT Campus Tharamani, Chennai - 600113. (Auditorium)","Central Polytechnic College, CIT Campus Tharamani, Chennai - 600113. (Auditorium), Tamil Nadu, India",https://www.google.com/maps/search/?api=1&query=Central+Polytechnic+College%2C+CIT+Campus+Tharamani%2C+Chennai+-+600113.+%28Auditorium%29%2C+Tamil+Nadu%2C+India,12.999121,80.247471,arcgis,Central Polytechnic College,resolved
9,Chennai,5,"Government Polytechnic College, R.K.Nagar",Chennai-600081,"Government Polytechnic College, R.K.Nagar, Chennai-600081","Government Polytechnic College, R.K.Nagar, Chennai-600081, Tamil Nadu, India",https://www.google.com/maps/search/?api=1&query=Government+Polytechnic+College%2C+R.K.Nagar%2C+Chennai-600081%2C+Tamil+Nadu%2C+India,13.136351,80.288951,arcgis,Govt Polytechnic College,resolved
10,Chennai,6,Government Polytechnic College,"No.1,Subbarayan Main Steet, Nammalvarpet, Purasawalkam, Chennai - 600012","Government Polytechnic College, No.1,Subbarayan Main Steet, Nammalvarpet, Purasawalkam, Chennai - 600012","Government Polytechnic College, No.1,Subbarayan Main Steet, Nammalvarpet, Purasawalkam, Chennai - 600012, Tamil Nadu, India",https://www.google.com/maps/search/?api=1&query=Government+Polytechnic+College%2C+No.1%2CSubbarayan+Main+Steet%2C+Nammalvarpet%2C+Purasawalkam%2C+Chennai+-+600012%2C+Tamil+Nadu%2C+India,13.0971409,80.2568073,arcgis,"600012, Otteri, Tamil Nadu",resolved
11,Chennai,55,"Institute of Textile Technology,Chennai-",600113,"Institute of Textile Technology,Chennai- 600113","Institute of Textile Technology,Chennai- 600113, Tamil Nadu, India",https://www.google.com/maps/search/?api=1&query=Institute+of+Textile+Technology%2CChennai-+600113%2C+Tamil+Nadu%2C+India,12.997063,80.248347,arcgis,Institute of Textile Technology,resolved
12,Chennai,56,"Institute of Printing Technology, Chennai -",600113.,"Institute of Printing Technology, Chennai - 600113.","Institute of Printing Technology, Chennai - 600113., Tamil Nadu, India",https://www.google.com/maps/search/?api=1&query=Institute+of+Printing+Technology%2C+Chennai+-+600113.%2C+Tamil+Nadu%2C+India,12.998191,80.247591,arcgis,Institute of Printing Technology,resolved
13,Chennai,57,"State Institute of Commerce Education, CIT","Campus, Tharamani, Chennai-600113","State Institute of Commerce Education, CIT Campus, Tharamani, Chennai-600113","State Institute of Commerce Education, CIT Campus, Tharamani, Chennai-600113, Tamil Nadu, India",https://www.google.com/maps/search/?api=1&query=State+Institute+of+Commerce+Education%2C+CIT+Campus%2C+Tharamani%2C+Chennai-600113%2C+Tamil+Nadu%2C+India,12.994211,80.248021,arcgis,State Institute Of Commerce Education,resolved
14,Chennai,58,University Departments of Anna University,"Chennai -CEG Campus, Sardar Patel Road, Guindy, Chennai - 25","University Departments of Anna University, Chennai -CEG Campus, Sardar Patel Road, Guindy, Chennai - 25","University Departments of Anna University, Chennai -CEG Campus, Sardar Patel Road, Guindy, Chennai - 25, Tamil Nadu, India",https://www.google.com/maps/search/?api=1&query=University+Departments+of+Anna+University%2C+Chennai+-CEG+Campus%2C+Sardar+Patel+Road%2C+Guindy%2C+Chennai+-+25%2C+Tamil+Nadu%2C+India,13.009932,80.234121,arcgis,Anna University,resolved
15,Chennai,102,Dr.Dharamambal Government Polytechnic,"College For Women, Tharamani, Chennai -, 600113.","Dr.Dharamambal Government Polytechnic College For Women, Tharamani, Chennai - 600113.","Dr.Dharamambal Government Polytechnic College For Women, Tharamani, Chennai - 600113., Tamil Nadu, India",https://www.google.com/maps/search/?api=1&query=Dr.Dharamambal+Government+Polytechnic+College+For+Women%2C+Tharamani%2C+Chennai+-+600113.%2C+Tamil+Nadu%2C+India,13.0048983,80.244919,arcgis,"600113, Tharamani, Tamil Nadu",resolved
16,Coimbatore,22,Government College of Technology,Coimbatore - 641013,"Government College of Technology, Coimbatore - 641013","Government College of Technology, Coimbatore - 641013, Tamil Nadu, India",https://www.google.com/maps/search/?api=1&query=Government+College+of+Technology%2C+Coimbatore+-+641013%2C+Tamil+Nadu%2C+India,11.0181432,76.9359635,arcgis,Government College of Technology Coimbatore,resolved
17,Coimbatore,23,Government Polytechnic College For,"Women, Coimbatore","Government Polytechnic College For Women, Coimbatore","Government Polytechnic College For Women, Coimbatore, Tamil Nadu, India",https://www.google.com/maps/search/?api=1&query=Government+Polytechnic+College+For+Women%2C+Coimbatore%2C+Tamil+Nadu%2C+India,11.016261,76.976717,arcgis,Government Polytechnic College For Women,resolved
18,Coimbatore,24,"Coimbatore Institute of Technology, Civil","Aerodrome Post, Peelamedu, Coimbatore -, 14","Coimbatore Institute of Technology, Civil Aerodrome Post, Peelamedu, Coimbatore - 14","Coimbatore Institute of Technology, Civil Aerodrome Post, Peelamedu, Coimbatore - 14, Tamil Nadu, India",https://www.google.com/maps/search/?api=1&query=Coimbatore+Institute+of+Technology%2C+Civil+Aerodrome+Post%2C+Peelamedu%2C+Coimbatore+-+14%2C+Tamil+Nadu%2C+India,11.029078,77.026502,arcgis,Coimbatore Institute of Technology,resolved
19,Coimbatore,60,Government Polytechnic College,Coimbatore - 641014,"Government Polytechnic College, Coimbatore - 641014","Government Polytechnic College, Coimbatore - 641014, Tamil Nadu, India",https://www.google.com/maps/search/?api=1&query=Government+Polytechnic+College%2C+Coimbatore+-+641014%2C+Tamil+Nadu%2C+India,11.0318393,77.0299295,arcgis,Government Polytechnic College,resolved
20,Coimbatore,61,"PSG College of Technology, Peelamedu",Coimbatore 641004,"PSG College of Technology, Peelamedu, Coimbatore 641004","PSG College of Technology, Peelamedu, Coimbatore 641004, Tamil Nadu, India",https://www.google.com/maps/search/?api=1&query=PSG+College+of+Technology%2C+Peelamedu%2C+Coimbatore+641004%2C+Tamil+Nadu%2C+India,11.0243072,77.0028349,arcgis,PSG College Of Technology,resolved
21,Coimbatore,62,Anna University Regional Campus,"Coimbatore, Maruthamalai Road, Navavoor, Coimbatore - 641046","Anna University Regional Campus Coimbatore, Maruthamalai Road, Navavoor, Coimbatore - 641046","Anna University Regional Campus Coimbatore, Maruthamalai Road, Navavoor, Coimbatore - 641046, Tamil Nadu, India",https://www.google.com/maps/search/?api=1&query=Anna+University+Regional+Campus+Coimbatore%2C+Maruthamalai+Road%2C+Navavoor%2C+Coimbatore+-+641046%2C+Tamil+Nadu%2C+India,11.0385107,76.867777,arcgis,"Maruthamalai Road, Maruthamalai, Coimbatore South, Coimbatore, Tamil Nadu, 641046",resolved
22,Cuddalore,16,Thiru Kolanjiappar Government Arts College,Viruthachlam -606001,"Thiru Kolanjiappar Government Arts College, Viruthachlam -606001","Thiru Kolanjiappar Government Arts College, Viruthachlam -606001, Cuddalore, Tamil Nadu, India",https://www.google.com/maps/search/?api=1&query=Thiru+Kolanjiappar+Government+Arts+College%2C+Viruthachlam+-606001%2C+Cuddalore%2C+Tamil+Nadu%2C+India,11.517144,79.324249,arcgis,"606001, Vridhachalam, Tamil Nadu",resolved
23,Cuddalore,17,Faculty of Engineering and Technology,"Annamalai University, Annamalainagar, Chidambaram-608001, Cuddalore District","Faculty of Engineering and Technology, Annamalai University, Annamalainagar, Chidambaram-608001, Cuddalore District","Faculty of Engineering and Technology, Annamalai University, Annamalainagar, Chidambaram-608001, Cuddalore District, Tamil Nadu, India",https://www.google.com/maps/search/?api=1&query=Faculty+of+Engineering+and+Technology%2C+Annamalai+University%2C+Annamalainagar%2C+Chidambaram-608001%2C+Cuddalore+District%2C+Tamil+Nadu%2C+India,11.400608,79.6750297,arcgis,"608001, Chidambaram, Tamil Nadu",resolved
24,Cuddalore,63,"Government Polytechnic College, Kooduveli",Kattumannarkoil-Tk Pin 608305,"Government Polytechnic College, Kooduveli, Kattumannarkoil-Tk Pin 608305","Government Polytechnic College, Kooduveli, Kattumannarkoil-Tk Pin 608305, Cuddalore, Tamil Nadu, India",https://www.google.com/maps/search/?api=1&query=Government+Polytechnic+College%2C+Kooduveli%2C+Kattumannarkoil-Tk+Pin+608305%2C+Cuddalore%2C+Tamil+Nadu%2C+India,11.3539422,79.5670163,arcgis,"608305, Chidambaram, Tamil Nadu",resolved
25,Cuddalore,64,University College of Engineering Panruti,"Chennai Kumbakonam Highway, Pannikkankuppam, Pincode - 607106","University College of Engineering Panruti, Chennai Kumbakonam Highway, Pannikkankuppam, Pincode - 607106","University College of Engineering Panruti, Chennai Kumbakonam Highway, Pannikkankuppam, Pincode - 607106, Cuddalore, Tamil Nadu, India",https://www.google.com/maps/search/?api=1&query=University+College+of+Engineering+Panruti%2C+Chennai+Kumbakonam+Highway%2C+Pannikkankuppam%2C+Pincode+-+607106%2C+Cuddalore%2C+Tamil+Nadu%2C+India,11.773343,79.554398,arcgis,"607106, Panruti, Tamil Nadu",resolved
26,Dharmapuri,28,Government College of Engineering,"Chettikarai, Dharmapuri,636704","Government College of Engineering, Chettikarai, Dharmapuri,636704","Government College of Engineering, Chettikarai, Dharmapuri,636704, Tamil Nadu, India",https://www.google.com/maps/search/?api=1&query=Government+College+of+Engineering%2C+Chettikarai%2C+Dharmapuri%2C636704%2C+Tamil+Nadu%2C+India,12.1247574,78.2354234,arcgis,"636704, Dharmapuri, Tamil Nadu",resolved
27,Dharmapuri,65,Government Polytechnic College,Dharmapuri - 635205.,"Government Polytechnic College, Dharmapuri - 635205.","Government Polytechnic College, Dharmapuri - 635205., Tamil Nadu, India",https://www.google.com/maps/search/?api=1&query=Government+Polytechnic+College%2C+Dharmapuri+-+635205.%2C+Tamil+Nadu%2C+India,12.246128,78.193491,arcgis,Pee Gee Polytechnic Institute,resolved
28,Dharmapuri,66,"Government Polytechnic College, Kadathur -",635303,"Government Polytechnic College, Kadathur - 635303","Government Polytechnic College, Kadathur - 635303, Dharmapuri, Tamil Nadu, India",https://www.google.com/maps/search/?api=1&query=Government+Polytechnic+College%2C+Kadathur+-+635303%2C+Dharmapuri%2C+Tamil+Nadu%2C+India,12.086217,78.291122,arcgis,"635303, Kadathur, Tamil Nadu",resolved
29,Dharmapuri,67,Government Polytechnic College Palacode -,636808.,Government Polytechnic College Palacode - 636808.,"Government Polytechnic College Palacode - 636808., Dharmapuri, Tamil Nadu, India",https://www.google.com/maps/search/?api=1&query=Government+Polytechnic+College+Palacode+-+636808.%2C+Dharmapuri%2C+Tamil+Nadu%2C+India,12.297074,78.071922,arcgis,"636808, Palakodu, Tamil Nadu",resolved
30,Dindigul,34,"G.T.N Arts College (Autonomous ), Old Karur","Road, Dindigul-624005.","G.T.N Arts College (Autonomous ), Old Karur Road, Dindigul-624005.","G.T.N Arts College (Autonomous ), Old Karur Road, Dindigul-624005., Tamil Nadu, India",https://www.google.com/maps/search/?api=1&query=G.T.N+Arts+College+%28Autonomous+%29%2C+Old+Karur+Road%2C+Dindigul-624005.%2C+Tamil+Nadu%2C+India,10.3828468,77.9918907,arcgis,"Karur Road, Nandhavanappatty, MVM Nagar, Dindigul, Tamil Nadu, 624005",resolved
31,Dindigul,68,University College of Engineering Dindigul &,"Maangaraipirivu, Reddiyarchattram, Dindigul, - 624622","University College of Engineering Dindigul & Maangaraipirivu, Reddiyarchattram, Dindigul - 624622","University College of Engineering Dindigul & Maangaraipirivu, Reddiyarchattram, Dindigul - 624622, Tamil Nadu, India",https://www.google.com/maps/search/?api=1&query=University+College+of+Engineering+Dindigul+%26+Maangaraipirivu%2C+Reddiyarchattram%2C+Dindigul+-+624622%2C+Tamil+Nadu%2C+India,10.4323349,77.8257772,arcgis,"624622, Dindigul, Tamil Nadu",resolved
32,Dindigul,69,Arulmigu Palaniandavar Polytechnic College,"Dindigul road, Palani-624601","Arulmigu Palaniandavar Polytechnic College, Dindigul road, Palani-624601","Arulmigu Palaniandavar Polytechnic College, Dindigul road, Palani-624601, Tamil Nadu, India",https://www.google.com/maps/search/?api=1&query=Arulmigu+Palaniandavar+Polytechnic+College%2C+Dindigul+road%2C+Palani-624601%2C+Tamil+Nadu%2C+India,10.447881,77.527901,arcgis,Arulmigu Palaniandavar Polytechnic College,resolved
33,Erode,20,Gobi Arts & Science College,"Karattadipalayam Post, Gobichettipalayam-, 638453","Gobi Arts & Science College, Karattadipalayam Post, Gobichettipalayam- 638453","Gobi Arts & Science College, Karattadipalayam Post, Gobichettipalayam- 638453, Erode, Tamil Nadu, India",https://www.google.com/maps/search/?api=1&query=Gobi+Arts+%26+Science+College%2C+Karattadipalayam+Post%2C+Gobichettipalayam-+638453%2C+Erode%2C+Tamil+Nadu%2C+India,11.4065989,77.4226073,arcgis,"638453, Gobichettipalayam, Tamil Nadu",resolved
34,Erode,21,Government Polytechnic College,"Karumandicellipalayam, Sanitorium (Po), Perundurai, Erode (Dt) 638053","Government Polytechnic College, Karumandicellipalayam, Sanitorium (Po), Perundurai, Erode (Dt) 638053","Government Polytechnic College, Karumandicellipalayam, Sanitorium (Po), Perundurai, Erode (Dt) 638053, Tamil Nadu, India",https://www.google.com/maps/search/?api=1&query=Government+Polytechnic+College%2C+Karumandicellipalayam%2C+Sanitorium+%28Po%29%2C+Perundurai%2C+Erode+%28Dt%29+638053%2C+Tamil+Nadu%2C+India,11.2854675,77.5640874,arcgis,"638053, Perundurai, Tamil Nadu",resolved
35,Erode,70,Government College of Engineering(IRTT),Erode-638316,"Government College of Engineering(IRTT), Erode-638316","Government College of Engineering(IRTT), Erode-638316, Tamil Nadu, India",https://www.google.com/maps/search/?api=1&query=Government+College+of+Engineering%28IRTT%29%2C+Erode-638316%2C+Tamil+Nadu%2C+India,12.547561,78.332441,arcgis,Government College of Engineering,resolved
36,Erode,71,"Sakthi Polytechnic College, Sakthinagar","Appakoodal, Anthiyur Tk, Erode Dt. - 638315","Sakthi Polytechnic College, Sakthinagar, Appakoodal, Anthiyur Tk, Erode Dt. - 638315","Sakthi Polytechnic College, Sakthinagar, Appakoodal, Anthiyur Tk, Erode Dt. - 638315, Tamil Nadu, India",https://www.google.com/maps/search/?api=1&query=Sakthi+Polytechnic+College%2C+Sakthinagar%2C+Appakoodal%2C+Anthiyur+Tk%2C+Erode+Dt.+-+638315%2C+Tamil+Nadu%2C+India,11.491222,77.561977,arcgis,Sakthi Polytechnic College,resolved
37,Kallakurichi,15,Government Polytechnic College,"Kattuvannanjur Village, Sankarapuram Taluk, Kallakurichi District, Pin: 606401","Government Polytechnic College, Kattuvannanjur Village, Sankarapuram Taluk, Kallakurichi District, Pin: 606401","Government Polytechnic College, Kattuvannanjur Village, Sankarapuram Taluk, Kallakurichi District, Pin: 606401, Tamil Nadu, India",https://www.google.com/maps/search/?api=1&query=Government+Polytechnic+College%2C+Kattuvannanjur+Village%2C+Sankarapuram+Taluk%2C+Kallakurichi+District%2C+Pin%3A+606401%2C+Tamil+Nadu%2C+India,11.888388,78.916595,arcgis,"606401, Sankarapuram, Tamil Nadu",resolved
38,Kancheepuram,8,Bhaktavatsalam Polytechnic College,"Karapettai,Kanchipuram-631552","Bhaktavatsalam Polytechnic College, Karapettai,Kanchipuram-631552","Bhaktavatsalam Polytechnic College, Karapettai,Kanchipuram-631552, Kancheepuram, Tamil Nadu, India",https://www.google.com/maps/search/?api=1&query=Bhaktavatsalam+Polytechnic+College%2C+Karapettai%2CKanchipuram-631552%2C+Kancheepuram%2C+Tamil+Nadu%2C+India,12.9426094,79.736552,arcgis,"631552, Kanchipuram, Tamil Nadu",resolved
39,Kancheepuram,72,University College of Engineering,"Kancheepuram, NH-4 Chennai - Bangalore, Highways, Ponnerikkarai, Karaipettai - 631, 552","University College of Engineering Kancheepuram, NH-4 Chennai - Bangalore Highways, Ponnerikkarai, Karaipettai - 631552","University College of Engineering Kancheepuram, NH-4 Chennai - Bangalore Highways, Ponnerikkarai, Karaipettai - 631552, Tamil Nadu, India",https://www.google.com/maps/search/?api=1&query=University+College+of+Engineering+Kancheepuram%2C+NH-4+Chennai+-+Bangalore+Highways%2C+Ponnerikkarai%2C+Karaipettai+-+631552%2C+Tamil+Nadu%2C+India,12.874513,79.703937,arcgis,Kanchipuram Engineering College,resolved
40,Kanniyakumari,51,"S.T.Hindu College, Nagercoil-2","S.T.Hindu College, Nagercoil-2","S.T.Hindu College, Nagercoil-2","S.T.Hindu College, Nagercoil-2, Kanniyakumari, Tamil Nadu, India",https://www.google.com/maps/search/?api=1&query=S.T.Hindu+College%2C+Nagercoil-2%2C+Kanniyakumari%2C+Tamil+Nadu%2C+India,8.17899,77.43227,arcgis,"Nāgercoil, Kanniyakumari, Tamil Nādu",resolved
41,Kanniyakumari,83,"Government Polytechnic College, Konam",Nagercoil-629004,"Government Polytechnic College, Konam, Nagercoil-629004","Government Polytechnic College, Konam, Nagercoil-629004, Kanniyakumari, Tamil Nadu, India",https://www.google.com/maps/search/?api=1&query=Government+Polytechnic+College%2C+Konam%2C+Nagercoil-629004%2C+Kanniyakumari%2C+Tamil+Nadu%2C+India,8.1651114,77.4145767,arcgis,Government Poly Technic College,resolved
42,Kanniyakumari,110,University College of Engineering Nagercoil,"Konam, Nagercoil. 629004","University College of Engineering Nagercoil, Konam, Nagercoil. 629004","University College of Engineering Nagercoil, Konam, Nagercoil. 629004, Kanniyakumari, Tamil Nadu, India",https://www.google.com/maps/search/?api=1&query=University+College+of+Engineering+Nagercoil%2C+Konam%2C+Nagercoil.+629004%2C+Kanniyakumari%2C+Tamil+Nadu%2C+India,8.165487,77.415522,arcgis,University College Of Engineering,resolved
43,Karur,30,Government Arts College (Autonomous),"Thanthonimalai, Karur, 639005","Government Arts College (Autonomous), Thanthonimalai, Karur, 639005","Government Arts College (Autonomous), Thanthonimalai, Karur, 639005, Tamil Nadu, India",https://www.google.com/maps/search/?api=1&query=Government+Arts+College+%28Autonomous%29%2C+Thanthonimalai%2C+Karur%2C+639005%2C+Tamil+Nadu%2C+India,10.9394,78.0899,arcgis,"639005, Thanthondrimalai, Karur, Tamil Nadu",resolved
44,Karur,73,Government Polytechnic College,"Kaniyalampatti,Karur-621301","Government Polytechnic College, Kaniyalampatti,Karur-621301","Government Polytechnic College, Kaniyalampatti,Karur-621301, Tamil Nadu, India",https://www.google.com/maps/search/?api=1&query=Government+Polytechnic+College%2C+Kaniyalampatti%2CKarur-621301%2C+Tamil+Nadu%2C+India,10.773543,78.185352,arcgis,"621301, Kadaur, Tamil Nadu",resolved
45,Krishnagiri,29,Government College of Engineering Bargur -,635104,Government College of Engineering Bargur - 635104,"Government College of Engineering Bargur - 635104, Krishnagiri, Tamil Nadu, India",https://www.google.com/maps/search/?api=1&query=Government+College+of+Engineering+Bargur+-+635104%2C+Krishnagiri%2C+Tamil+Nadu%2C+India,12.547561,78.332441,arcgis,Government College of Engineering,resolved
46,Krishnagiri,74,"Government Polytechnic College,Krishnagiri-",635001,"Government Polytechnic College,Krishnagiri- 635001","Government Polytechnic College,Krishnagiri- 635001, Tamil Nadu, India",https://www.google.com/maps/search/?api=1&query=Government+Polytechnic+College%2CKrishnagiri-+635001%2C+Tamil+Nadu%2C+India,12.533738,78.245602,arcgis,Government Polytechnic College,resolved
47,Krishnagiri,75,"Government Polytechnic College, Uthangarai",-635207.,"Government Polytechnic College, Uthangarai -635207.","Government Polytechnic College, Uthangarai -635207., Krishnagiri, Tamil Nadu, India",https://www.google.com/maps/search/?api=1&query=Government+Polytechnic+College%2C+Uthangarai+-635207.%2C+Krishnagiri%2C+Tamil+Nadu%2C+India,12.533738,78.245602,arcgis,Government Polytechnic College,resolved
48,Krishnagiri,76,Government Polytechnic College,"Kelamangalam, (Opp. To Model School, Bodichipalli), Denkanikottai Tk, Krishnagiri Dt, 635113.","Government Polytechnic College, Kelamangalam, (Opp. To Model School, Bodichipalli), Denkanikottai Tk, Krishnagiri Dt 635113.","Government Polytechnic College, Kelamangalam, (Opp. To Model School, Bodichipalli), Denkanikottai Tk, Krishnagiri Dt 635113., Tamil Nadu, India",https://www.google.com/maps/search/?api=1&query=Government+Polytechnic+College%2C+Kelamangalam%2C+%28Opp.+To+Model+School%2C+Bodichipalli%29%2C+Denkanikottai+Tk%2C+Krishnagiri+Dt+635113.%2C+Tamil+Nadu%2C+India,13.0936722,80.2470185,arcgis,Government Polytechnic College,resolved
49,Madurai,31,Tamilnadu Government Polytechnic College,Madurai-625011,"Tamilnadu Government Polytechnic College, Madurai-625011","Tamilnadu Government Polytechnic College, Madurai-625011, Tamil Nadu, India",https://www.google.com/maps/search/?api=1&query=Tamilnadu+Government+Polytechnic+College%2C+Madurai-625011%2C+Tamil+Nadu%2C+India,9.909004,78.108556,arcgis,Govrnment Girls Polytechnic College,resolved
50,Madurai,32,Thiagarajar College of Engineering,"Thirupparankundram, Madurai, 625015","Thiagarajar College of Engineering, Thirupparankundram, Madurai, 625015","Thiagarajar College of Engineering, Thirupparankundram, Madurai, 625015, Tamil Nadu, India",https://www.google.com/maps/search/?api=1&query=Thiagarajar+College+of+Engineering%2C+Thirupparankundram%2C+Madurai%2C+625015%2C+Tamil+Nadu%2C+India,9.8855523,78.0794992,arcgis,Thyagarajan Engineering College,resolved
51,Madurai,77,Government Polytechnic College For,"Women, Madurai -625011","Government Polytechnic College For Women, Madurai -625011","Government Polytechnic College For Women, Madurai -625011, Tamil Nadu, India",https://www.google.com/maps/search/?api=1&query=Government+Polytechnic+College+For+Women%2C+Madurai+-625011%2C+Tamil+Nadu%2C+India,9.909004,78.108556,arcgis,Govrnment Girls Polytechnic College,resolved
52,Madurai,78,Government Polytechnic College Melur-,625109,Government Polytechnic College Melur- 625109,"Government Polytechnic College Melur- 625109, Madurai, Tamil Nadu, India",https://www.google.com/maps/search/?api=1&query=Government+Polytechnic+College+Melur-+625109%2C+Madurai%2C+Tamil+Nadu%2C+India,9.960251,78.415888,arcgis,Government Polytechnic College,resolved
53,Madurai,79,Government Polytechnic College,Usilampatti-625537,"Government Polytechnic College, Usilampatti-625537","Government Polytechnic College, Usilampatti-625537, Madurai, Tamil Nadu, India",https://www.google.com/maps/search/?api=1&query=Government+Polytechnic+College%2C+Usilampatti-625537%2C+Madurai%2C+Tamil+Nadu%2C+India,9.960251,78.415888,arcgis,Government Polytechnic College,resolved
54,Madurai,80,Government Polytechnic College,"Chekkanurani, Madurai","Government Polytechnic College, Chekkanurani, Madurai","Government Polytechnic College, Chekkanurani, Madurai, Tamil Nadu, India",https://www.google.com/maps/search/?api=1&query=Government+Polytechnic+College%2C+Chekkanurani%2C+Madurai%2C+Tamil+Nadu%2C+India,9.960251,78.415888,arcgis,Government Polytechnic College,resolved
55,Madurai,81,Anna University Regional Campus Madurai,"Keelakuildi, Madurai - 625019","Anna University Regional Campus Madurai, Keelakuildi, Madurai - 625019","Anna University Regional Campus Madurai, Keelakuildi, Madurai - 625019, Tamil Nadu, India",https://www.google.com/maps/search/?api=1&query=Anna+University+Regional+Campus+Madurai%2C+Keelakuildi%2C+Madurai+-+625019%2C+Tamil+Nadu%2C+India,9.93291,78.069873,arcgis,"625019, Madurai South, Tamil Nadu",resolved
56,Mayiladuthurai,52,Srinivasa Subbaraya Polytechnic College,"Puthur, Sirkali, Mayiladuthurai District-, 609108","Srinivasa Subbaraya Polytechnic College, Puthur, Sirkali, Mayiladuthurai District- 609108","Srinivasa Subbaraya Polytechnic College, Puthur, Sirkali, Mayiladuthurai District- 609108, Tamil Nadu, India",https://www.google.com/maps/search/?api=1&query=Srinivasa+Subbaraya+Polytechnic+College%2C+Puthur%2C+Sirkali%2C+Mayiladuthurai+District-+609108%2C+Tamil+Nadu%2C+India,11.3303196,79.7189302,arcgis,"609108, Sirkazhi, Tamil Nadu",resolved
57,Nagapattinam,36,Valivalam Desikar Polytechnic College,"Collectorate (Po), Nagapattinam, 611001","Valivalam Desikar Polytechnic College, Collectorate (Po), Nagapattinam, 611001","Valivalam Desikar Polytechnic College, Collectorate (Po), Nagapattinam, 611001, Tamil Nadu, India",https://www.google.com/maps/search/?api=1&query=Valivalam+Desikar+Polytechnic+College%2C+Collectorate+%28Po%29%2C+Nagapattinam%2C+611001%2C+Tamil+Nadu%2C+India,10.794061,79.836541,arcgis,Valivalam Desikar Polytechnic College,resolved
58,Nagapattinam,82,University College of Engineering,"Thirukkuvalai, Nagappattinam - 610204","University College of Engineering, Thirukkuvalai, Nagappattinam - 610204","University College of Engineering, Thirukkuvalai, Nagappattinam - 610204, Nagapattinam, Tamil Nadu, India",https://www.google.com/maps/search/?api=1&query=University+College+of+Engineering%2C+Thirukkuvalai%2C+Nagappattinam+-+610204%2C+Nagapattinam%2C+Tamil+Nadu%2C+India,10.6411275,79.7408938,arcgis,"610204, Thirukkuvalai, Tamil Nadu",resolved
59,Namakkal,27,Namakkal Kavignar Government Arts College,"For Women, Namakkal 637001","Namakkal Kavignar Government Arts College For Women, Namakkal 637001","Namakkal Kavignar Government Arts College For Women, Namakkal 637001, Tamil Nadu, India",https://www.google.com/maps/search/?api=1&query=Namakkal+Kavignar+Government+Arts+College+For+Women%2C+Namakkal+637001%2C+Tamil+Nadu%2C+India,11.214694,78.172741,arcgis,Ramalingam Government Art College For Womens,resolved
60,Namakkal,84,"Government Polytechnic College, Mohanur",Namakkal - 637015,"Government Polytechnic College, Mohanur, Namakkal - 637015","Government Polytechnic College, Mohanur, Namakkal - 637015, Tamil Nadu, India",https://www.google.com/maps/search/?api=1&query=Government+Polytechnic+College%2C+Mohanur%2C+Namakkal+-+637015%2C+Tamil+Nadu%2C+India,11.061073,78.138695,arcgis,"637015, Mohanur, Tamil Nadu",resolved
61,Perambalur,40,Government Polytechnic,"College,Perambalur-621104","Government Polytechnic College,Perambalur-621104","Government Polytechnic College,Perambalur-621104, Tamil Nadu, India",https://www.google.com/maps/search/?api=1&query=Government+Polytechnic+College%2CPerambalur-621104%2C+Tamil+Nadu%2C+India,13.0936722,80.2470185,arcgis,Government Polytechnic College,resolved
62,Pudukottai,43,"Govt Polytechnic College , Aranthangi",614616,"Govt Polytechnic College, Aranthangi 614616","Govt Polytechnic College, Aranthangi 614616, Pudukottai, Tamil Nadu, India",https://www.google.com/maps/search/?api=1&query=Govt+Polytechnic+College%2C+Aranthangi+614616%2C+Pudukottai%2C+Tamil+Nadu%2C+India,10.156531,78.998331,arcgis,Government Polytechnic College,resolved
63,Pudukottai,86,Government Polytechnic College,"Gandharvakottai, Pudupatti Village - 613301.","Government Polytechnic College, Gandharvakottai, Pudupatti Village - 613301.","Government Polytechnic College, Gandharvakottai, Pudupatti Village - 613301., Pudukottai, Tamil Nadu, India",https://www.google.com/maps/search/?api=1&query=Government+Polytechnic+College%2C+Gandharvakottai%2C+Pudupatti+Village+-+613301.%2C+Pudukottai%2C+Tamil+Nadu%2C+India,10.573184,79.0130959,arcgis,"613301, Gandarvakottai, Tamil Nadu",resolved
64,Ramanathapuram,33,"Government Arts College, Paramakudi - 623",701.,"Government Arts College, Paramakudi - 623701.","Government Arts College, Paramakudi - 623701., Ramanathapuram, Tamil Nadu, India",https://www.google.com/maps/search/?api=1&query=Government+Arts+College%2C+Paramakudi+-+623701.%2C+Ramanathapuram%2C+Tamil+Nadu%2C+India,9.530881,78.603657,arcgis,Government Arts College Paramagudi,resolved
65,Ramanathapuram,87,University College of Engineering,"Ramanathapuram, Pullangudi, Ramanathapuram 623513","University College of Engineering Ramanathapuram, Pullangudi, Ramanathapuram 623513","University College of Engineering Ramanathapuram, Pullangudi, Ramanathapuram 623513, Tamil Nadu, India",https://www.google.com/maps/search/?api=1&query=University+College+of+Engineering+Ramanathapuram%2C+Pullangudi%2C+Ramanathapuram+623513%2C+Tamil+Nadu%2C+India,9.452826,78.898087,arcgis,"623513, Ramanathapuram, Tamil Nadu",resolved
66,Ranipet,11,Arignar Anna Government Arts College for,"Women, Walajapet, Ranipet Dt -632513","Arignar Anna Government Arts College for Women, Walajapet, Ranipet Dt -632513","Arignar Anna Government Arts College for Women, Walajapet, Ranipet Dt -632513, Tamil Nadu, India",https://www.google.com/maps/search/?api=1&query=Arignar+Anna+Government+Arts+College+for+Women%2C+Walajapet%2C+Ranipet+Dt+-632513%2C+Tamil+Nadu%2C+India,12.922361,79.376611,arcgis,Arignar Anna Government Arts College,resolved
67,Salem,19,"Government College of Engineering, Salem",636011,"Government College of Engineering, Salem, 636011","Government College of Engineering, Salem, 636011, Tamil Nadu, India",https://www.google.com/maps/search/?api=1&query=Government+College+of+Engineering%2C+Salem%2C+636011%2C+Tamil+Nadu%2C+India,11.712701,78.088901,arcgis,Government College Of Engineering,resolved
68,Salem,88,"Government Polytechnic College, Vanavasi",Salem-636457,"Government Polytechnic College, Vanavasi, Salem-636457","Government Polytechnic College, Vanavasi, Salem-636457, Tamil Nadu, India",https://www.google.com/maps/search/?api=1&query=Government+Polytechnic+College%2C+Vanavasi%2C+Salem-636457%2C+Tamil+Nadu%2C+India,11.750052,77.882607,arcgis,"636457, Vanavasi, Tamil Nadu",resolved
69,Salem,89,"Thiagarajar Polytechnic College, Junction","Main Road, Salem - 636005","Thiagarajar Polytechnic College, Junction Main Road, Salem - 636005","Thiagarajar Polytechnic College, Junction Main Road, Salem - 636005, Tamil Nadu, India",https://www.google.com/maps/search/?api=1&query=Thiagarajar+Polytechnic+College%2C+Junction+Main+Road%2C+Salem+-+636005%2C+Tamil+Nadu%2C+India,11.674939,78.125084,arcgis,Thiagarajar Polytechnic College,resolved
70,Sivagangai,45,Alagappa Chettiar Government College of,"Engineering And Technology, Karaikudi, 630003","Alagappa Chettiar Government College of Engineering And Technology, Karaikudi 630003","Alagappa Chettiar Government College of Engineering And Technology, Karaikudi 630003, Sivagangai, Tamil Nadu, India",https://www.google.com/maps/search/?api=1&query=Alagappa+Chettiar+Government+College+of+Engineering+And+Technology%2C+Karaikudi+630003%2C+Sivagangai%2C+Tamil+Nadu%2C+India,10.078757,78.7935506,arcgis,"630003, Subramaniapuram, Tamil Nadu",resolved
71,Sivagangai,90,Alagappa Government Polytechnic College,Karaikudi - 630003.,"Alagappa Government Polytechnic College, Karaikudi - 630003.","Alagappa Government Polytechnic College, Karaikudi - 630003., Sivagangai, Tamil Nadu, India",https://www.google.com/maps/search/?api=1&query=Alagappa+Government+Polytechnic+College%2C+Karaikudi+-+630003.%2C+Sivagangai%2C+Tamil+Nadu%2C+India,10.078757,78.7935506,arcgis,"630003, Subramaniapuram, Tamil Nadu",resolved
72,Sivagangai,91,"Annamalai Polytechnic College,Chettinad -",630102,"Annamalai Polytechnic College,Chettinad - 630102","Annamalai Polytechnic College,Chettinad - 630102, Sivagangai, Tamil Nadu, India",https://www.google.com/maps/search/?api=1&query=Annamalai+Polytechnic+College%2CChettinad+-+630102%2C+Sivagangai%2C+Tamil+Nadu%2C+India,10.159184,78.779076,arcgis,Annamalai Polytechnic College Hostel,resolved
73,Tenkasi,47,Government Arts And Science College,Kadayanallur,"Government Arts And Science College, Kadayanallur","Government Arts And Science College, Kadayanallur, Tenkasi, Tamil Nadu, India",https://www.google.com/maps/search/?api=1&query=Government+Arts+And+Science+College%2C+Kadayanallur%2C+Tenkasi%2C+Tamil+Nadu%2C+India,11.196294,77.286439,arcgis,Government Arts And Science College,resolved
74,Tenkasi,59,Kamarajar Government Arts College,"Surandai, Tenkasi - 627859","Kamarajar Government Arts College, Surandai, Tenkasi - 627859","Kamarajar Government Arts College, Surandai, Tenkasi - 627859, Tamil Nadu, India",https://www.google.com/maps/search/?api=1&query=Kamarajar+Government+Arts+College%2C+Surandai%2C+Tenkasi+-+627859%2C+Tamil+Nadu%2C+India,8.977251,77.422226,arcgis,"627859, Surandai, Tamil Nadu",resolved
75,Thanjavur,37,Government Polytechnic College,Papanasam 61420,"Government Polytechnic College, Papanasam 61420","Government Polytechnic College, Papanasam 61420, Thanjavur, Tamil Nadu, India",https://www.google.com/maps/search/?api=1&query=Government+Polytechnic+College%2C+Papanasam+61420%2C+Thanjavur%2C+Tamil+Nadu%2C+India,10.927176,79.265358,arcgis,"Papanasam, Thanjavur, Tamil Nadu",resolved
76,Thanjavur,38,Govt. College of Engineering Sengipatti,Thanjavur - 613402,"Govt. College of Engineering Sengipatti, Thanjavur - 613402","Govt. College of Engineering Sengipatti, Thanjavur - 613402, Tamil Nadu, India",https://www.google.com/maps/search/?api=1&query=Govt.+College+of+Engineering+Sengipatti%2C+Thanjavur+-+613402%2C+Tamil+Nadu%2C+India,10.6940673,78.9766654,arcgis,Government College Of Engineering,resolved
77,Thanjavur,92,University College of Engineering,"Pattukkottai, ECR Road, Rajamadam.614701","University College of Engineering Pattukkottai, ECR Road, Rajamadam.614701","University College of Engineering Pattukkottai, ECR Road, Rajamadam.614701, Thanjavur, Tamil Nadu, India",https://www.google.com/maps/search/?api=1&query=University+College+of+Engineering+Pattukkottai%2C+ECR+Road%2C+Rajamadam.614701%2C+Thanjavur%2C+Tamil+Nadu%2C+India,10.339503,79.384972,arcgis,"614701, Adiramapattinam, Tamil Nadu",resolved
78,The Nilgiris,26,"Government Arts College, Udhagamandalam",- 643002. The Nilgiris.,"Government Arts College, Udhagamandalam - 643002. The Nilgiris.","Government Arts College, Udhagamandalam - 643002. The Nilgiris., Tamil Nadu, India",https://www.google.com/maps/search/?api=1&query=Government+Arts+College%2C+Udhagamandalam+-+643002.+The+Nilgiris.%2C+Tamil+Nadu%2C+India,11.4109165,76.7166456,arcgis,Government Arts College,resolved
79,The Nilgiris,85,Government Polytechnic College,"Udhagamandalam, Finger Post, Ooty, The, Nilgiris643006","Government Polytechnic College, Udhagamandalam, Finger Post, Ooty, The Nilgiris643006","Government Polytechnic College, Udhagamandalam, Finger Post, Ooty, The Nilgiris643006, Tamil Nadu, India",https://www.google.com/maps/search/?api=1&query=Government+Polytechnic+College%2C+Udhagamandalam%2C+Finger+Post%2C+Ooty%2C+The+Nilgiris643006%2C+Tamil+Nadu%2C+India,11.420334,76.676653,arcgis,Udagamandalam Government Polytechnic College,resolved
80,Theni,35,Government College of Engineering,Bodinayakkanur-Theni District 625582,"Government College of Engineering, Bodinayakkanur-Theni District 625582","Government College of Engineering, Bodinayakkanur-Theni District 625582, Tamil Nadu, India",https://www.google.com/maps/search/?api=1&query=Government+College+of+Engineering%2C+Bodinayakkanur-Theni+District+625582%2C+Tamil+Nadu%2C+India,9.994671,77.349313,arcgis,Government Engineering Collage,resolved
81,Theni,93,"Government Polytechnic College, Theni -",625534,"Government Polytechnic College, Theni - 625534","Government Polytechnic College, Theni - 625534, Tamil Nadu, India",https://www.google.com/maps/search/?api=1&query=Government+Polytechnic+College%2C+Theni+-+625534%2C+Tamil+Nadu%2C+India,9.956787,77.533852,arcgis,Government Polytechnic College,resolved
82,Theni,94,"Government Polytechnic College,Aundipatti-",625517,"Government Polytechnic College,Aundipatti- 625517","Government Polytechnic College,Aundipatti- 625517, Theni, Tamil Nadu, India",https://www.google.com/maps/search/?api=1&query=Government+Polytechnic+College%2CAundipatti-+625517%2C+Theni%2C+Tamil+Nadu%2C+India,9.956787,77.533852,arcgis,Government Polytechnic College,resolved
83,Thiruvallur,9,Murugappa Polytechnic College,"Sathyamurthy Nagar, Avadi, Chennai -, 600062","Murugappa Polytechnic College, Sathyamurthy Nagar, Avadi, Chennai - 600062","Murugappa Polytechnic College, Sathyamurthy Nagar, Avadi, Chennai - 600062, Thiruvallur, Tamil Nadu, India",https://www.google.com/maps/search/?api=1&query=Murugappa+Polytechnic+College%2C+Sathyamurthy+Nagar%2C+Avadi%2C+Chennai+-+600062%2C+Thiruvallur%2C+Tamil+Nadu%2C+India,13.1722355,80.1060797,arcgis,"600062, Ambattur, Tamil Nadu",resolved
84,Thiruvallur,10,Loganatha Narayanasamy Government,"College (A), Ponneri","Loganatha Narayanasamy Government College (A), Ponneri","Loganatha Narayanasamy Government College (A), Ponneri, Thiruvallur, Tamil Nadu, India",https://www.google.com/maps/search/?api=1&query=Loganatha+Narayanasamy+Government+College+%28A%29%2C+Ponneri%2C+Thiruvallur%2C+Tamil+Nadu%2C+India,13.3306445,80.1951644,arcgis,Loganathan Narayanasamy Government College,resolved
85,Thiruvallur,96,"Government Polytechnic College, Sevapettai",Thiruvallur. 602025,"Government Polytechnic College, Sevapettai, Thiruvallur. 602025","Government Polytechnic College, Sevapettai, Thiruvallur. 602025, Tamil Nadu, India",https://www.google.com/maps/search/?api=1&query=Government+Polytechnic+College%2C+Sevapettai%2C+Thiruvallur.+602025%2C+Tamil+Nadu%2C+India,13.1272,79.9694,arcgis,"602025, Sevvapettai, Tiruvallur, Tamil Nadu",resolved
86,Thiruvallur,97,AMK Technological Polytechnic College,"Chennai-Banglore High Road, Sembarambakkam-600123","AMK Technological Polytechnic College, Chennai-Banglore High Road, Sembarambakkam-600123","AMK Technological Polytechnic College, Chennai-Banglore High Road, Sembarambakkam-600123, Thiruvallur, Tamil Nadu, India",https://www.google.com/maps/search/?api=1&query=AMK+Technological+Polytechnic+College%2C+Chennai-Banglore+High+Road%2C+Sembarambakkam-600123%2C+Thiruvallur%2C+Tamil+Nadu%2C+India,13.036677,80.052371,arcgis,Amk Technological Polytechnic College,resolved
87,Thiruvarur,44,"Government Polytechnic College, Thozhuvur","Colony, Valangaiman. Thiruvarur District. Pin, - 612804","Government Polytechnic College, Thozhuvur Colony, Valangaiman. Thiruvarur District. Pin - 612804","Government Polytechnic College, Thozhuvur Colony, Valangaiman. Thiruvarur District. Pin - 612804, Tamil Nadu, India",https://www.google.com/maps/search/?api=1&query=Government+Polytechnic+College%2C+Thozhuvur+Colony%2C+Valangaiman.+Thiruvarur+District.+Pin+-+612804%2C+Tamil+Nadu%2C+India,10.889647,79.393555,arcgis,"612804, Valangiman, Tamil Nadu",resolved
88,Thiruvarur,99,"Government Polytechnic College, Korukkai -",614711,"Government Polytechnic College, Korukkai - 614711","Government Polytechnic College, Korukkai - 614711, Thiruvarur, Tamil Nadu, India",https://www.google.com/maps/search/?api=1&query=Government+Polytechnic+College%2C+Korukkai+-+614711%2C+Thiruvarur%2C+Tamil+Nadu%2C+India,10.5146431,79.694747,arcgis,"614711, Tirutturaipundi, Tamil Nadu",resolved
89,Thoothukudi,50,Government Polytechnic College,"Palayamkottai Road, Thoothukudi -628008","Government Polytechnic College, Palayamkottai Road, Thoothukudi -628008","Government Polytechnic College, Palayamkottai Road, Thoothukudi -628008, Tamil Nadu, India",https://www.google.com/maps/search/?api=1&query=Government+Polytechnic+College%2C+Palayamkottai+Road%2C+Thoothukudi+-628008%2C+Tamil+Nadu%2C+India,8.791001,78.120101,arcgis,Government Polytechnic College,resolved
90,Thoothukudi,103,Bharathiyar Centenary Memorial Women’s,"Polytechnic College, Ettayapuram - 628902.","Bharathiyar Centenary Memorial Women’s Polytechnic College, Ettayapuram - 628902.","Bharathiyar Centenary Memorial Women’s Polytechnic College, Ettayapuram - 628902., Thoothukudi, Tamil Nadu, India",https://www.google.com/maps/search/?api=1&query=Bharathiyar+Centenary+Memorial+Women%E2%80%99s+Polytechnic+College%2C+Ettayapuram+-+628902.%2C+Thoothukudi%2C+Tamil+Nadu%2C+India,9.144239,78.044848,arcgis,"628902, Ettaiyapuram, Tamil Nadu",resolved
91,Thoothukudi,104,University VOC College of Engineering,Thoothukudi,"University VOC College of Engineering, Thoothukudi","University VOC College of Engineering, Thoothukudi, Tamil Nadu, India",https://www.google.com/maps/search/?api=1&query=University+VOC+College+of+Engineering%2C+Thoothukudi%2C+Tamil+Nadu%2C+India,8.795181,78.129001,arcgis,V O C College,resolved
92,Tiruchirappalli,41,Government Polytechnic College,"Thuvakudimalai, Trichy","Government Polytechnic College, Thuvakudimalai, Trichy","Government Polytechnic College, Thuvakudimalai, Trichy, Tiruchirappalli, Tamil Nadu, India",https://www.google.com/maps/search/?api=1&query=Government+Polytechnic+College%2C+Thuvakudimalai%2C+Trichy%2C+Tiruchirappalli%2C+Tamil+Nadu%2C+India,10.766497,78.803512,arcgis,Government Polytechnic College,resolved
93,Tiruchirappalli,42,Government College of Engineering,"Srirangam, Trichy - 620012","Government College of Engineering Srirangam, Trichy - 620012","Government College of Engineering Srirangam, Trichy - 620012, Tiruchirappalli, Tamil Nadu, India",https://www.google.com/maps/search/?api=1&query=Government+College+of+Engineering+Srirangam%2C+Trichy+-+620012%2C+Tiruchirappalli%2C+Tamil+Nadu%2C+India,10.7100861,78.5989012,arcgis,"620012, Srirangam, Tamil Nadu",resolved
94,Tiruchirappalli,100,Government Polytechnic College Srirangam,Trichy 620012,Government Polytechnic College Srirangam Trichy 620012,"Government Polytechnic College Srirangam Trichy 620012, Tiruchirappalli, Tamil Nadu, India",https://www.google.com/maps/search/?api=1&query=Government+Polytechnic+College+Srirangam+Trichy+620012%2C+Tiruchirappalli%2C+Tamil+Nadu%2C+India,10.766497,78.803512,arcgis,Government Polytechnic College,resolved
95,Tiruchirappalli,101,University College of Engineering (BIT-,"Campus) Anna University Tiruchirappalli -, 620024)",University College of Engineering (BIT- Campus) Anna University Tiruchirappalli - 620024),"University College of Engineering (BIT- Campus) Anna University Tiruchirappalli - 620024), Tamil Nadu, India",https://www.google.com/maps/search/?api=1&query=University+College+of+Engineering+%28BIT-+Campus%29+Anna+University+Tiruchirappalli+-+620024%29%2C+Tamil+Nadu%2C+India,10.6672503,78.7396558,arcgis,"620024, Thiruverumbur, Tamil Nadu",resolved
96,Tirunelveli,48,Government College of Engineering,Tirunelveli - 627007,"Government College of Engineering, Tirunelveli - 627007","Government College of Engineering, Tirunelveli - 627007, Tamil Nadu, India",https://www.google.com/maps/search/?api=1&query=Government+College+of+Engineering%2C+Tirunelveli+-+627007%2C+Tamil+Nadu%2C+India,8.685151,77.726601,arcgis,Government College of Engineering,resolved
97,Tirunelveli,49,Rani Anna Government College For Women,"Gandhinagar, Tirunelveli -627008","Rani Anna Government College For Women, Gandhinagar, Tirunelveli -627008","Rani Anna Government College For Women, Gandhinagar, Tirunelveli -627008, Tamil Nadu, India",https://www.google.com/maps/search/?api=1&query=Rani+Anna+Government+College+For+Women%2C+Gandhinagar%2C+Tirunelveli+-627008%2C+Tamil+Nadu%2C+India,8.7328,77.6588,arcgis,"627008, Gandhi Nagar, Tirunelveli, Tamil Nadu",resolved
98,Tirunelveli,95,Anna University Regional Campus-,"Tirunelveli, Trivandrum Road, Palayamkottai, Tirunelveli-627007","Anna University Regional Campus- Tirunelveli, Trivandrum Road, Palayamkottai, Tirunelveli-627007","Anna University Regional Campus- Tirunelveli, Trivandrum Road, Palayamkottai, Tirunelveli-627007, Tamil Nadu, India",https://www.google.com/maps/search/?api=1&query=Anna+University+Regional+Campus-+Tirunelveli%2C+Trivandrum+Road%2C+Palayamkottai%2C+Tirunelveli-627007%2C+Tamil+Nadu%2C+India,8.7115541,77.7314141,arcgis,"Trivandrum Road, Palayankottai, Rajendra Nagar, Tirunelveli, Tamil Nadu, 627007",resolved
99,Tirupathur,13,"Government Polytechnic College, Jolarpet",Thirupathur - 635651,"Government Polytechnic College, Jolarpet, Thirupathur - 635651","Government Polytechnic College, Jolarpet, Thirupathur - 635651, Tirupathur, Tamil Nadu, India",https://www.google.com/maps/search/?api=1&query=Government+Polytechnic+College%2C+Jolarpet%2C+Thirupathur+-+635651%2C+Tirupathur%2C+Tamil+Nadu%2C+India,12.5242,78.5424,arcgis,"635651, Tiruppattur, Tamil Nadu",resolved
100,Tiruppur,25,Chikkanna Government Arts College Tirupur,641602,Chikkanna Government Arts College Tirupur 641602,"Chikkanna Government Arts College Tirupur 641602, Tiruppur, Tamil Nadu, India",https://www.google.com/maps/search/?api=1&query=Chikkanna+Government+Arts+College+Tirupur+641602%2C+Tiruppur%2C+Tamil+Nadu%2C+India,11.108091,77.318591,arcgis,Chikkanna Government Arts College,resolved
101,Tiruvannamalai,14,"Government Polytechnic College, Cheyyar-",604407,"Government Polytechnic College, Cheyyar- 604407","Government Polytechnic College, Cheyyar- 604407, Tiruvannamalai, Tamil Nadu, India",https://www.google.com/maps/search/?api=1&query=Government+Polytechnic+College%2C+Cheyyar-+604407%2C+Tiruvannamalai%2C+Tamil+Nadu%2C+India,12.580722,79.580528,arcgis,Government Polytechnic College,resolved
102,Tiruvannamalai,98,"University College of Engineering Arni, Arni","To Devikapuram Road, Thatchur Village, Arni, Taluk, Tiruvannamalai - 632326","University College of Engineering Arni, Arni To Devikapuram Road, Thatchur Village, Arni Taluk, Tiruvannamalai - 632326","University College of Engineering Arni, Arni To Devikapuram Road, Thatchur Village, Arni Taluk, Tiruvannamalai - 632326, Tamil Nadu, India",https://www.google.com/maps/search/?api=1&query=University+College+of+Engineering+Arni%2C+Arni+To+Devikapuram+Road%2C+Thatchur+Village%2C+Arni+Taluk%2C+Tiruvannamalai+-+632326%2C+Tamil+Nadu%2C+India,12.576113,79.276109,arcgis,"632326, Arani, Tamil Nadu",resolved
103,Vellore,12,Thanthai Periyar Govt Institute of Technology,Vellore-632002,Thanthai Periyar Govt Institute of Technology Vellore-632002,"Thanthai Periyar Govt Institute of Technology Vellore-632002, Tamil Nadu, India",https://www.google.com/maps/search/?api=1&query=Thanthai+Periyar+Govt+Institute+of+Technology+Vellore-632002%2C+Tamil+Nadu%2C+India,12.8797247,79.1235404,arcgis,Thanthai Periyar Government Institute Of Technology,resolved
104,Vellore,105,Thanthai Periyar E.V.Ramasamy,"Government Polytechnic College, Sivaramapuram, Vellore -632002","Thanthai Periyar E.V.Ramasamy Government Polytechnic College, Sivaramapuram, Vellore -632002","Thanthai Periyar E.V.Ramasamy Government Polytechnic College, Sivaramapuram, Vellore -632002, Tamil Nadu, India",https://www.google.com/maps/search/?api=1&query=Thanthai+Periyar+E.V.Ramasamy+Government+Polytechnic+College%2C+Sivaramapuram%2C+Vellore+-632002%2C+Tamil+Nadu%2C+India,12.8730883,79.1250169,arcgis,"632002, Bagayam, Tamil Nadu",resolved
105,Viluppuram,18,Govt Polytechnic College No 27,"Kandachipuram Main Road Arakandanallur, Post Tirukoilur Taluk",Govt Polytechnic College No 27 Kandachipuram Main Road Arakandanallur Post Tirukoilur Taluk,"Govt Polytechnic College No 27 Kandachipuram Main Road Arakandanallur Post Tirukoilur Taluk, Viluppuram, Tamil Nadu, India",https://www.google.com/maps/search/?api=1&query=Govt+Polytechnic+College+No+27+Kandachipuram+Main+Road+Arakandanallur+Post+Tirukoilur+Taluk%2C+Viluppuram%2C+Tamil+Nadu%2C+India,12.1397563,79.5396801,arcgis,"Viluppuram, Tamil Nadu",resolved
106,Viluppuram,106,University College of Engineering Tindivanam,"& Melpakkam Post, Tindivanam, Villupuram, Dt. - 604307","University College of Engineering Tindivanam & Melpakkam Post, Tindivanam, Villupuram Dt. - 604307","University College of Engineering Tindivanam & Melpakkam Post, Tindivanam, Villupuram Dt. - 604307, Viluppuram, Tamil Nadu, India",https://www.google.com/maps/search/?api=1&query=University+College+of+Engineering+Tindivanam+%26+Melpakkam+Post%2C+Tindivanam%2C+Villupuram+Dt.+-+604307%2C+Viluppuram%2C+Tamil+Nadu%2C+India,12.289472,79.719806,arcgis,University College Of Engineering,resolved
107,Viluppuram,107,University College of Engineering Villupuram,"Kakuppam, Villupuram-605103","University College of Engineering Villupuram, Kakuppam, Villupuram-605103","University College of Engineering Villupuram, Kakuppam, Villupuram-605103, Viluppuram, Tamil Nadu, India",https://www.google.com/maps/search/?api=1&query=University+College+of+Engineering+Villupuram%2C+Kakuppam%2C+Villupuram-605103%2C+Viluppuram%2C+Tamil+Nadu%2C+India,11.9508693,79.5132222,arcgis,Villupuram University College of Engineering,resolved
108,Virudhunagar,46,V.V.Vanniaperumal College For Women,"Madurai Road, Virudhunagar","V.V.Vanniaperumal College For Women, Madurai Road, Virudhunagar","V.V.Vanniaperumal College For Women, Madurai Road, Virudhunagar, Tamil Nadu, India",https://www.google.com/maps/search/?api=1&query=V.V.Vanniaperumal+College+For+Women%2C+Madurai+Road%2C+Virudhunagar%2C+Tamil+Nadu%2C+India,9.608938,77.955817,arcgis,Vv Vannai Perumal College For Women,resolved
109,Virudhunagar,108,P.A.C. Ramasamy Raja Polytechnic College,Rajapalayam 626108,"P.A.C. Ramasamy Raja Polytechnic College, Rajapalayam 626108","P.A.C. Ramasamy Raja Polytechnic College, Rajapalayam 626108, Virudhunagar, Tamil Nadu, India",https://www.google.com/maps/search/?api=1&query=P.A.C.+Ramasamy+Raja+Polytechnic+College%2C+Rajapalayam+626108%2C+Virudhunagar%2C+Tamil+Nadu%2C+India,9.431511,77.561878,arcgis,PAC Ramasamy Raja Polytechnic College,resolved
110,Virudhunagar,109,Ayyanadar Janakiammal Polytechnic,"College, Chinnakkamanpatti (PO), Sivakasi, East - 626189","Ayyanadar Janakiammal Polytechnic College, Chinnakkamanpatti (PO), Sivakasi East - 626189","Ayyanadar Janakiammal Polytechnic College, Chinnakkamanpatti (PO), Sivakasi East - 626189, Virudhunagar, Tamil Nadu, India",https://www.google.com/maps/search/?api=1&query=Ayyanadar+Janakiammal+Polytechnic+College%2C+Chinnakkamanpatti+%28PO%29%2C+Sivakasi+East+-+626189%2C+Virudhunagar%2C+Tamil+Nadu%2C+India,9.412579,77.857482,arcgis,Ayya Nadar Janaki Ammal Polytechnic College,resolved
